{"id":7,"name":"Angola","iso":"AGO","states":[{"id":221,"name":"Bengo Province","cities":[{"id":153645,"name":"Ambriz","latitude":"-7.85740000","longitude":"13.12510000"},{"id":153646,"name":"Bula Atumba","latitude":"-7.31170000","longitude":"14.31470000"},{"id":598,"name":"Caxito","latitude":"-8.57848000","longitude":"13.66425000"},{"id":153647,"name":"Dande","latitude":"-8.11330000","longitude":"13.76520000"},{"id":153648,"name":"Muxima","latitude":"-9.58790000","longitude":"13.52510000"},{"id":153649,"name":"Nambuangongo","latitude":"-8.56560000","longitude":"13.65720000"},{"id":153650,"name":"Pango Aluquém","latitude":"-8.55440000","longitude":"13.58150000"},{"id":153651,"name":"Úcua","latitude":"-8.67240000","longitude":"13.68290000"}]},{"id":218,"name":"Benguela Province","cities":[{"id":153653,"name":"Baía Farta","latitude":"-12.57660000","longitude":"13.47760000"},{"id":153654,"name":"Balombo","latitude":"-12.90460000","longitude":"13.59590000"},{"id":590,"name":"Benguela","latitude":"-12.57626000","longitude":"13.40547000"},{"id":153656,"name":"Bocoio","latitude":"-12.53030000","longitude":"13.40420000"},{"id":153659,"name":"Caimbambo","latitude":"-12.61330000","longitude":"14.41940000"},{"id":153652,"name":"Catumbela","latitude":"-12.39860000","longitude":"13.54940000"},{"id":597,"name":"Catumbela","latitude":"-12.43002000","longitude":"13.54677000"},{"id":153655,"name":"Chongoroi","latitude":"-12.78880000","longitude":"13.79750000"},{"id":153658,"name":"Cubal","latitude":"-12.58850000","longitude":"14.42670000"},{"id":153657,"name":"Ganda","latitude":"-12.68250000","longitude":"14.42330000"},{"id":613,"name":"Lobito","latitude":"-12.36440000","longitude":"13.53601000"},{"id":153660,"name":"Sumbe","latitude":"-11.20610000","longitude":"13.84480000"}]},{"id":212,"name":"Bié Province","cities":[{"id":595,"name":"Camacupa","latitude":"-12.01667000","longitude":"17.48333000"},{"id":596,"name":"Catabola","latitude":"-12.15000000","longitude":"17.28333000"},{"id":605,"name":"Chissamba","latitude":"-12.16667000","longitude":"17.33333000"},{"id":606,"name":"Cuito","latitude":"-12.38333000","longitude":"16.93333000"}]},{"id":228,"name":"Cabinda Province","cities":[{"id":591,"name":"Cabinda","latitude":"-5.55000000","longitude":"12.20000000"}]},{"id":226,"name":"Cuando Cubango Province","cities":[{"id":625,"name":"Menongue","latitude":"-14.65850000","longitude":"17.69099000"}]},{"id":217,"name":"Cuanza Norte Province","cities":[{"id":594,"name":"Camabatela","latitude":"-8.18812000","longitude":"15.37495000"},{"id":627,"name":"N’dalatando","latitude":"-9.29782000","longitude":"14.91162000"}]},{"id":216,"name":"Cuanza Sul","cities":[{"id":629,"name":"Quibala","latitude":"-10.73366000","longitude":"14.97995000"},{"id":634,"name":"Sumbe","latitude":"-11.20605000","longitude":"13.84371000"},{"id":635,"name":"Uacu Cungo","latitude":"-11.35669000","longitude":"15.11719000"}]},{"id":215,"name":"Cunene Province","cities":[{"id":628,"name":"Ondjiva","latitude":"-17.06667000","longitude":"15.73333000"}]},{"id":213,"name":"Huambo Province","cities":[{"id":600,"name":"Caála","latitude":"-12.85250000","longitude":"15.56056000"},{"id":601,"name":"Chela","latitude":"-12.30261000","longitude":"15.43358000"},{"id":609,"name":"Huambo","latitude":"-12.77611000","longitude":"15.73917000"},{"id":614,"name":"Longonjo","latitude":"-12.90667000","longitude":"15.25333000"}]},{"id":225,"name":"Huíla Province","cities":[{"id":592,"name":"Caconda","latitude":"-13.73333000","longitude":"15.06667000"},{"id":593,"name":"Caluquembe","latitude":"-13.92093000","longitude":"14.53476000"},{"id":602,"name":"Chibia","latitude":"-15.23657000","longitude":"13.88468000"},{"id":603,"name":"Chicomba","latitude":"-14.30788000","longitude":"14.98672000"},{"id":604,"name":"Chipindo","latitude":"-13.86830000","longitude":"15.73277000"},{"id":607,"name":"Cuvango","latitude":"-14.27693000","longitude":"16.31475000"},{"id":608,"name":"Gambos","latitude":"-15.80926000","longitude":"14.07661000"},{"id":610,"name":"Humpata","latitude":"-15.07250000","longitude":"13.36771000"},{"id":612,"name":"Jamba","latitude":"-14.76294000","longitude":"15.83493000"},{"id":617,"name":"Lubango","latitude":"-14.91717000","longitude":"13.49250000"},{"id":623,"name":"Matala","latitude":"-15.23967000","longitude":"15.17246000"},{"id":630,"name":"Quilengues","latitude":"-13.99213000","longitude":"13.76705000"},{"id":631,"name":"Quipungo","latitude":"-15.12203000","longitude":"14.55953000"}]},{"id":222,"name":"Luanda Province","cities":[{"id":589,"name":"Belas","latitude":"-9.06875000","longitude":"13.16072000"},{"id":153641,"name":"Cacuaco","latitude":"-8.82960000","longitude":"13.29730000"},{"id":153642,"name":"Cazenga","latitude":"-8.82860000","longitude":"13.26650000"},{"id":611,"name":"Icolo e Bengo","latitude":"-9.24191000","longitude":"13.73549000"},{"id":615,"name":"Luanda","latitude":"-8.83682000","longitude":"13.23432000"},{"id":153643,"name":"Talatona","latitude":"-8.89570000","longitude":"13.19430000"},{"id":153644,"name":"Viana","latitude":"-8.90210000","longitude":"13.28610000"}]},{"id":223,"name":"Lunda Norte Province","cities":[{"id":618,"name":"Lucapa","latitude":"-8.68337000","longitude":"20.27045000"}]},{"id":220,"name":"Lunda Sul Province","cities":[{"id":599,"name":"Cazaji","latitude":"-11.06715000","longitude":"20.70148000"},{"id":632,"name":"Saurimo","latitude":"-9.66078000","longitude":"20.39155000"}]},{"id":227,"name":"Malanje Province","cities":[{"id":622,"name":"Malanje","latitude":"-9.54015000","longitude":"16.34096000"}]},{"id":219,"name":"Moxico Province","cities":[{"id":621,"name":"Léua","latitude":"-11.65000000","longitude":"20.45000000"},{"id":616,"name":"Luau","latitude":"-10.70727000","longitude":"22.22466000"},{"id":619,"name":"Luena","latitude":"-11.78333000","longitude":"19.91667000"},{"id":620,"name":"Lumeje","latitude":"-11.55000000","longitude":"20.78333000"}]},{"id":224,"name":"Uíge Province","cities":[{"id":636,"name":"Uíge","latitude":"-7.60874000","longitude":"15.06131000"}]},{"id":214,"name":"Zaire Province","cities":[{"id":624,"name":"Mbanza Congo","latitude":"-6.26703000","longitude":"14.24010000"},{"id":626,"name":"N'zeto","latitude":"-7.23116000","longitude":"12.86660000"},{"id":633,"name":"Soio","latitude":"-6.13490000","longitude":"12.36894000"}]}]}