{"id":135,"name":"Malta","iso":"MLT","states":[{"id":110,"name":"Attard","cities":[{"id":67758,"name":"Attard","latitude":"35.88972000","longitude":"14.44250000"}]},{"id":108,"name":"Balzan","cities":[{"id":67759,"name":"Balzan","latitude":"35.90028000","longitude":"14.45500000"}]},{"id":107,"name":"Birgu","cities":[{"id":67817,"name":"Vittoriosa","latitude":"35.89222000","longitude":"14.51833000"}]},{"id":97,"name":"Birkirkara","cities":[{"id":67760,"name":"Birkirkara","latitude":"35.89722000","longitude":"14.46111000"}]},{"id":88,"name":"Birżebbuġa","cities":[{"id":67761,"name":"Birżebbuġa","latitude":"35.82583000","longitude":"14.52694000"}]},{"id":138,"name":"Cospicua","cities":[{"id":67762,"name":"Cospicua","latitude":"35.88556000","longitude":"14.52750000"}]},{"id":117,"name":"Dingli","cities":[{"id":67763,"name":"Dingli","latitude":"35.86139000","longitude":"14.38222000"}]},{"id":129,"name":"Fgura","cities":[{"id":67764,"name":"Fgura","latitude":"35.87028000","longitude":"14.51333000"}]},{"id":84,"name":"Floriana","cities":[{"id":67765,"name":"Floriana","latitude":"35.89583000","longitude":"14.50833000"}]},{"id":134,"name":"Fontana","cities":[{"id":67766,"name":"Fontana","latitude":"36.03750000","longitude":"14.23611000"}]},{"id":130,"name":"Għajnsielem","cities":[{"id":67768,"name":"Għajnsielem","latitude":"36.02639000","longitude":"14.28500000"},{"id":67772,"name":"Hal Gharghur","latitude":"35.92409000","longitude":"14.45118000"}]},{"id":92,"name":"Għarb","cities":[]},{"id":120,"name":"Għargħur","cities":[{"id":67770,"name":"Għaxaq","latitude":"35.84889000","longitude":"14.51667000"}]},{"id":106,"name":"Għasri","cities":[{"id":67767,"name":"Gudja","latitude":"35.84917000","longitude":"14.50306000"}]},{"id":124,"name":"Għaxaq","cities":[{"id":67771,"name":"Gżira","latitude":"35.90583000","longitude":"14.48806000"}]},{"id":118,"name":"Gudja","cities":[]},{"id":113,"name":"Gżira","cities":[{"id":67769,"name":"Għarb","latitude":"36.06000000","longitude":"14.20889000"}]},{"id":105,"name":"Ħamrun","cities":[{"id":67821,"name":"Ħamrun","latitude":"35.88472000","longitude":"14.48444000"}]},{"id":93,"name":"Iklin","cities":[{"id":67781,"name":"L-Iklin","latitude":"35.90414000","longitude":"14.45415000"}]},{"id":99,"name":"Kalkara","cities":[{"id":67777,"name":"Imġarr","latitude":"35.92056000","longitude":"14.36639000"},{"id":67791,"name":"Mġarr","latitude":"36.02528000","longitude":"14.29500000"}]},{"id":91,"name":"Kerċem","cities":[{"id":67789,"name":"Mqabba","latitude":"35.84763000","longitude":"14.46824000"}]},{"id":82,"name":"Kirkop","cities":[{"id":67775,"name":"Imsida","latitude":"35.89250000","longitude":"14.48278000"},{"id":67780,"name":"Kirkop","latitude":"35.84222000","longitude":"14.48528000"}]},{"id":126,"name":"Lija","cities":[{"id":67776,"name":"Imtarfa","latitude":"35.89333000","longitude":"14.39889000"},{"id":67782,"name":"Lija","latitude":"35.90056000","longitude":"14.44639000"}]},{"id":77,"name":"Luqa","cities":[{"id":67783,"name":"Luqa","latitude":"35.85889000","longitude":"14.48861000"},{"id":67809,"name":"Senglea","latitude":"35.88750000","longitude":"14.51694000"}]},{"id":128,"name":"Marsa","cities":[{"id":67778,"name":"Kalkara","latitude":"35.88917000","longitude":"14.53278000"}]},{"id":137,"name":"Marsaskala","cities":[{"id":67779,"name":"Kerċem","latitude":"36.04194000","longitude":"14.22667000"},{"id":67785,"name":"Marsaskala","latitude":"35.86220000","longitude":"14.56701000"}]},{"id":78,"name":"Marsaxlokk","cities":[{"id":67786,"name":"Marsaxlokk","latitude":"35.84194000","longitude":"14.54306000"}]},{"id":89,"name":"Mdina","cities":[]},{"id":102,"name":"Mellieħa","cities":[]},{"id":109,"name":"Mġarr","cities":[{"id":67784,"name":"Marsa","latitude":"35.87917000","longitude":"14.49528000"}]},{"id":140,"name":"Mosta","cities":[]},{"id":74,"name":"Mqabba","cities":[]},{"id":96,"name":"Msida","cities":[{"id":67787,"name":"Mellieħa","latitude":"35.95639000","longitude":"14.36222000"}]},{"id":131,"name":"Mtarfa","cities":[]},{"id":132,"name":"Munxar","cities":[{"id":67790,"name":"Munxar","latitude":"36.03000000","longitude":"14.23333000"}]},{"id":133,"name":"Nadur","cities":[{"id":67792,"name":"Nadur","latitude":"36.03778000","longitude":"14.29417000"}]},{"id":112,"name":"Naxxar","cities":[{"id":67793,"name":"Naxxar","latitude":"35.91361000","longitude":"14.44361000"}]},{"id":115,"name":"Paola","cities":[{"id":67794,"name":"Paola","latitude":"35.87306000","longitude":"14.49889000"}]},{"id":125,"name":"Pembroke","cities":[{"id":67795,"name":"Pembroke","latitude":"35.93056000","longitude":"14.47639000"}]},{"id":127,"name":"Pietà","cities":[{"id":67796,"name":"Pietà","latitude":"35.89472000","longitude":"14.49500000"}]},{"id":79,"name":"Qala","cities":[{"id":67797,"name":"Qala","latitude":"36.03611000","longitude":"14.30944000"}]},{"id":119,"name":"Qormi","cities":[{"id":67798,"name":"Qormi","latitude":"35.87601000","longitude":"14.47200000"}]},{"id":111,"name":"Qrendi","cities":[{"id":67799,"name":"Qrendi","latitude":"35.83472000","longitude":"14.45833000"}]},{"id":83,"name":"Rabat","cities":[]},{"id":87,"name":"Saint Lawrence","cities":[{"id":67803,"name":"San Lawrenz","latitude":"36.05556000","longitude":"14.20361000"}]},{"id":75,"name":"San Ġwann","cities":[{"id":67805,"name":"San Ġiljan","latitude":"35.91839000","longitude":"14.48977000"}]},{"id":116,"name":"Sannat","cities":[{"id":67804,"name":"San Pawl il-Baħar","latitude":"35.95064000","longitude":"14.41561000"},{"id":67806,"name":"Sannat","latitude":"36.02444000","longitude":"14.24278000"}]},{"id":94,"name":"Santa Luċija","cities":[{"id":67808,"name":"Santa Venera","latitude":"35.89083000","longitude":"14.47417000"}]},{"id":90,"name":"Santa Venera","cities":[]},{"id":136,"name":"Senglea","cities":[{"id":67774,"name":"Imdina","latitude":"35.88694000","longitude":"14.40250000"}]},{"id":98,"name":"Siġġiewi","cities":[{"id":67810,"name":"Siġġiewi","latitude":"35.85556000","longitude":"14.43639000"}]},{"id":104,"name":"Sliema","cities":[{"id":67811,"name":"Sliema","latitude":"35.91250000","longitude":"14.50194000"}]},{"id":100,"name":"St. Julian's","cities":[{"id":67801,"name":"Saint John","latitude":"35.90556000","longitude":"14.47611000"}]},{"id":139,"name":"St. Paul's Bay","cities":[{"id":67788,"name":"Mosta","latitude":"35.90917000","longitude":"14.42556000"},{"id":67802,"name":"Saint Lucia","latitude":"36.04306000","longitude":"14.21722000"},{"id":67807,"name":"Santa Luċija","latitude":"35.86278000","longitude":"14.50750000"}]},{"id":86,"name":"Swieqi","cities":[{"id":67812,"name":"Swieqi","latitude":"35.92250000","longitude":"14.48000000"}]},{"id":122,"name":"Ta' Xbiex","cities":[{"id":67814,"name":"Ta’ Xbiex","latitude":"35.89917000","longitude":"14.49444000"}]},{"id":103,"name":"Tarxien","cities":[{"id":67813,"name":"Tarxien","latitude":"35.86583000","longitude":"14.51500000"}]},{"id":95,"name":"Valletta","cities":[{"id":67815,"name":"Valletta","latitude":"35.89972000","longitude":"14.51472000"}]},{"id":101,"name":"Victoria","cities":[{"id":67800,"name":"Rabat","latitude":"35.88152000","longitude":"14.39872000"},{"id":67816,"name":"Victoria","latitude":"36.04444000","longitude":"14.23972000"}]},{"id":114,"name":"Xagħra","cities":[{"id":67818,"name":"Xagħra","latitude":"36.05000000","longitude":"14.26444000"}]},{"id":121,"name":"Xewkija","cities":[{"id":67819,"name":"Xewkija","latitude":"36.03278000","longitude":"14.25806000"}]},{"id":81,"name":"Xgħajra","cities":[{"id":67820,"name":"Xgħajra","latitude":"35.88556000","longitude":"14.54750000"}]},{"id":123,"name":"Żabbar","cities":[{"id":67822,"name":"Żabbar","latitude":"35.87611000","longitude":"14.53500000"}]},{"id":85,"name":"Żebbuġ Gozo","cities":[{"id":67773,"name":"Haz-Zebbug","latitude":"35.87194000","longitude":"14.44111000"}]},{"id":80,"name":"Żebbuġ Malta","cities":[{"id":67823,"name":"Żebbuġ","latitude":"36.07222000","longitude":"14.23583000"}]},{"id":135,"name":"Żejtun","cities":[{"id":67824,"name":"Żejtun","latitude":"35.85583000","longitude":"14.53306000"}]},{"id":76,"name":"Żurrieq","cities":[{"id":67825,"name":"Żurrieq","latitude":"35.83111000","longitude":"14.47417000"}]}]}