{"id":146,"name":"Mongolia","iso":"MNG","states":[{"id":1973,"name":"Arkhangai Province","cities":[{"id":67734,"name":"Tsetserleg","latitude":"47.47500000","longitude":"101.45417000"}]},{"id":1969,"name":"Bayan-Ölgii Province","cities":[{"id":67706,"name":"Altay","latitude":"48.29359000","longitude":"89.51488000"},{"id":67740,"name":"Ölgii","latitude":"48.96833000","longitude":"89.96250000"},{"id":67733,"name":"Tsengel","latitude":"48.94314000","longitude":"89.14358000"}]},{"id":1976,"name":"Bayankhongor Province","cities":[{"id":67709,"name":"Bayanhongor","latitude":"46.19444000","longitude":"100.71806000"}]},{"id":1961,"name":"Bulgan Province","cities":[{"id":67710,"name":"Bulgan","latitude":"48.81250000","longitude":"103.53472000"}]},{"id":1962,"name":"Darkhan-Uul Province","cities":[{"id":67714,"name":"Darhan","latitude":"49.48667000","longitude":"105.92278000"}]},{"id":1963,"name":"Dornod Province","cities":[{"id":67711,"name":"Choibalsan","latitude":"48.07257000","longitude":"114.53264000"},{"id":67718,"name":"Ereencav","latitude":"49.88070000","longitude":"115.72526000"}]},{"id":1981,"name":"Dornogovi Province","cities":[]},{"id":1970,"name":"Dundgovi Province","cities":[{"id":67725,"name":"Mandalgovi","latitude":"45.76250000","longitude":"106.27083000"}]},{"id":1972,"name":"Govi-Altai Province","cities":[{"id":67705,"name":"Altai","latitude":"46.37222000","longitude":"96.25833000"}]},{"id":1978,"name":"Govisümber Province","cities":[{"id":67712,"name":"Choyr","latitude":"46.36111000","longitude":"108.36111000"}]},{"id":1974,"name":"Khentii Province","cities":[{"id":67739,"name":"Undurkhaan","latitude":"47.31944000","longitude":"110.65556000"}]},{"id":1964,"name":"Khovd Province","cities":[{"id":67724,"name":"Khovd","latitude":"48.00556000","longitude":"91.64194000"},{"id":67728,"name":"Möst","latitude":"46.67712000","longitude":"92.78521000"},{"id":67741,"name":"Üyönch","latitude":"46.04786000","longitude":"92.02612000"}]},{"id":1975,"name":"Khövsgöl Province","cities":[{"id":67719,"name":"Hanh","latitude":"51.50265000","longitude":"100.66395000"},{"id":67726,"name":"Murun-kuren","latitude":"49.63417000","longitude":"100.16250000"},{"id":67732,"name":"Tsengel","latitude":"49.47833000","longitude":"100.88944000"},{"id":67735,"name":"Turt","latitude":"51.50725000","longitude":"100.66257000"}]},{"id":1967,"name":"Ömnögovi Province","cities":[{"id":67713,"name":"Dalandzadgad","latitude":"43.57083000","longitude":"104.42500000"},{"id":67720,"name":"Hanhongor","latitude":"43.77345000","longitude":"104.47998000"},{"id":67730,"name":"Nomgon Sum","latitude":"42.41462000","longitude":"105.05640000"}]},{"id":1966,"name":"Orkhon Province","cities":[{"id":67717,"name":"Erdenet","latitude":"49.03333000","longitude":"104.08333000"}]},{"id":1965,"name":"Övörkhangai Province","cities":[{"id":67707,"name":"Arvayheer","latitude":"46.26389000","longitude":"102.77500000"},{"id":67721,"name":"Harhorin","latitude":"47.19753000","longitude":"102.82379000"},{"id":67722,"name":"Hovd","latitude":"44.67024000","longitude":"102.17491000"},{"id":67723,"name":"Kharkhorin","latitude":"47.19245000","longitude":"102.81349000"},{"id":67729,"name":"Nariynteel","latitude":"45.95950000","longitude":"101.45977000"}]},{"id":1980,"name":"Selenge Province","cities":[{"id":67716,"name":"Dzüünharaa","latitude":"48.85229000","longitude":"106.45786000"},{"id":67731,"name":"Sühbaatar","latitude":"50.23139000","longitude":"106.20778000"}]},{"id":1977,"name":"Sükhbaatar Province","cities":[{"id":67708,"name":"Baruun-Urt","latitude":"46.68056000","longitude":"113.27917000"}]},{"id":1968,"name":"Töv Province","cities":[{"id":67715,"name":"Dzuunmod","latitude":"47.70694000","longitude":"106.95278000"},{"id":67727,"name":"Möngönmorĭt","latitude":"48.19504000","longitude":"108.48295000"},{"id":67737,"name":"Ulaanhudag","latitude":"47.33333000","longitude":"104.50000000"},{"id":67742,"name":"Зуунмод","latitude":"47.70693000","longitude":"106.95276000"}]},{"id":1971,"name":"Uvs Province","cities":[{"id":67736,"name":"Ulaangom","latitude":"49.98111000","longitude":"92.06667000"}]},{"id":1979,"name":"Zavkhan Province","cities":[{"id":67738,"name":"Uliastay","latitude":"47.74167000","longitude":"96.84444000"}]}]}