{"id":209,"name":"Sudan","iso":"SDN","states":[{"id":885,"name":"Al Jazirah","cities":[{"id":102921,"name":"Al Hasaheisa","latitude":"14.75264000","longitude":"33.29836000"},{"id":102922,"name":"Al Hilāliyya","latitude":"14.93980000","longitude":"33.23400000"},{"id":102924,"name":"Al Kiremit al ‘Arakiyyīn","latitude":"14.34760000","longitude":"32.94370000"},{"id":102926,"name":"Al Manāqil","latitude":"14.24590000","longitude":"32.98910000"},{"id":102927,"name":"Al Masallamiyya","latitude":"14.57480000","longitude":"33.33730000"},{"id":102980,"name":"Wad Medani","latitude":"14.40118000","longitude":"33.51989000"},{"id":102981,"name":"Wad Rāwah","latitude":"15.16028000","longitude":"33.13972000"}]},{"id":886,"name":"Al Qadarif","cities":[{"id":102931,"name":"Al Ḩawātah","latitude":"13.41667000","longitude":"34.63333000"},{"id":102929,"name":"Al Qadarif","latitude":"14.03493000","longitude":"35.38344000"},{"id":102942,"name":"Doka","latitude":"13.51667000","longitude":"35.76667000"}]},{"id":887,"name":"Blue Nile","cities":[{"id":102919,"name":"Ad-Damazin","latitude":"11.78910000","longitude":"34.35920000"},{"id":102934,"name":"Ar Ruseris","latitude":"11.86590000","longitude":"34.38690000"},{"id":102961,"name":"Kurmuk","latitude":"10.55000000","longitude":"34.28333000"}]},{"id":896,"name":"Central Darfur","cities":[{"id":102984,"name":"Zalingei","latitude":"12.90918000","longitude":"23.47058000"}]},{"id":892,"name":"East Darfur","cities":[{"id":102946,"name":"El Daein","latitude":"11.46186000","longitude":"26.12583000"}]},{"id":884,"name":"Kassala","cities":[{"id":102936,"name":"Aroma","latitude":"15.81667000","longitude":"36.13333000"},{"id":102956,"name":"Kassala","latitude":"15.45099000","longitude":"36.39998000"},{"id":102983,"name":"Wagar","latitude":"16.15250000","longitude":"36.20320000"}]},{"id":881,"name":"Khartoum","cities":[{"id":102957,"name":"Khartoum","latitude":"15.55177000","longitude":"32.53241000"},{"id":102967,"name":"Omdurman","latitude":"15.64453000","longitude":"32.47773000"}]},{"id":890,"name":"North Darfur","cities":[{"id":102947,"name":"El Fasher","latitude":"13.62793000","longitude":"25.34936000"},{"id":102962,"name":"Kutum","latitude":"14.20000000","longitude":"24.66667000"},{"id":102978,"name":"Umm Kaddadah","latitude":"13.60169000","longitude":"26.68759000"}]},{"id":893,"name":"North Kordofan","cities":[{"id":102933,"name":"Ar Rahad","latitude":"12.71667000","longitude":"30.65000000"},{"id":102940,"name":"Bārah","latitude":"13.70000000","longitude":"30.36667000"},{"id":102949,"name":"El Obeid","latitude":"13.18421000","longitude":"30.21669000"},{"id":102979,"name":"Umm Ruwaba","latitude":"12.90610000","longitude":"31.21580000"}]},{"id":895,"name":"Northern","cities":[{"id":102916,"name":"Ad Dabbah","latitude":"18.05000000","longitude":"30.95000000"},{"id":102935,"name":"Argo","latitude":"19.51667000","longitude":"30.41667000"},{"id":102943,"name":"Dongola","latitude":"19.18163000","longitude":"30.47689000"},{"id":102955,"name":"Karmah an Nuzul","latitude":"19.63333000","longitude":"30.41667000"},{"id":102960,"name":"Kuraymah","latitude":"18.55000000","longitude":"31.85000000"},{"id":102965,"name":"Merowe","latitude":"18.47036000","longitude":"31.81126000"}]},{"id":880,"name":"Red Sea","cities":[{"id":102950,"name":"Gebeit","latitude":"21.06667000","longitude":"36.31667000"},{"id":102968,"name":"Port Sudan","latitude":"19.61745000","longitude":"37.21644000"},{"id":102970,"name":"Sawākin","latitude":"19.10590000","longitude":"37.33210000"},{"id":102976,"name":"Tokār","latitude":"18.42540000","longitude":"37.72900000"}]},{"id":891,"name":"River Nile","cities":[{"id":102938,"name":"Atbara","latitude":"17.70217000","longitude":"33.98638000"},{"id":102939,"name":"Berber","latitude":"18.02158000","longitude":"33.98299000"},{"id":102944,"name":"Ed Damer","latitude":"17.59898000","longitude":"33.97205000"},{"id":102945,"name":"El Bauga","latitude":"18.26197000","longitude":"33.90812000"},{"id":102948,"name":"El Matama","latitude":"16.70950000","longitude":"33.35650000"},{"id":102971,"name":"Shendi","latitude":"16.69150000","longitude":"33.43410000"}]},{"id":882,"name":"Sennar","cities":[{"id":102917,"name":"Ad Dindar","latitude":"13.20000000","longitude":"34.16667000"},{"id":102937,"name":"As Sūkī","latitude":"13.31667000","longitude":"33.88333000"},{"id":102953,"name":"Jalqani","latitude":"12.44860000","longitude":"34.21860000"},{"id":102958,"name":"Kināna","latitude":"14.03610000","longitude":"33.17120000"},{"id":102963,"name":"Maiurno","latitude":"13.41667000","longitude":"33.66667000"},{"id":102972,"name":"Singa","latitude":"13.14830000","longitude":"33.93117000"},{"id":102973,"name":"Sinnar","latitude":"13.56907000","longitude":"33.56718000"}]},{"id":894,"name":"South Darfur","cities":[{"id":102952,"name":"Gereida","latitude":"11.27543000","longitude":"25.14026000"},{"id":102966,"name":"Nyala","latitude":"12.04888000","longitude":"24.88069000"}]},{"id":883,"name":"South Kordofan","cities":[{"id":102914,"name":"Abu Jibeha","latitude":"11.45620000","longitude":"31.22850000"},{"id":102920,"name":"Al Fūlah","latitude":"11.73292000","longitude":"28.35786000"},{"id":102941,"name":"Dilling","latitude":"12.05000000","longitude":"29.65000000"},{"id":102954,"name":"Kadugli","latitude":"11.01111000","longitude":"29.71833000"},{"id":102974,"name":"Talodi","latitude":"10.63246000","longitude":"30.37970000"}]},{"id":888,"name":"West Darfur","cities":[{"id":102951,"name":"Geneina","latitude":"13.45262000","longitude":"22.44725000"}]},{"id":889,"name":"West Kordofan","cities":[{"id":102915,"name":"Abū Zabad","latitude":"12.35000000","longitude":"29.25000000"},{"id":102925,"name":"Al Lagowa","latitude":"11.40000000","longitude":"29.13333000"},{"id":102928,"name":"Al Mijlad","latitude":"11.03333000","longitude":"27.73333000"},{"id":102932,"name":"An Nuhūd","latitude":"12.70000000","longitude":"28.43333000"}]},{"id":879,"name":"White Nile","cities":[{"id":102918,"name":"Ad Douiem","latitude":"14.00120000","longitude":"32.31160000"},{"id":102923,"name":"Al Kawa","latitude":"13.74630000","longitude":"32.49960000"},{"id":102930,"name":"Al Qiţena","latitude":"14.86480000","longitude":"32.36680000"},{"id":102959,"name":"Kosti","latitude":"13.16290000","longitude":"32.66347000"},{"id":102964,"name":"Marabba","latitude":"12.35000000","longitude":"32.18333000"},{"id":102969,"name":"Rabak","latitude":"13.18087000","longitude":"32.73999000"},{"id":102975,"name":"Tandaltī","latitude":"13.01667000","longitude":"31.86667000"},{"id":102977,"name":"Um Jar Al Gharbiyya","latitude":"13.80130000","longitude":"32.40780000"},{"id":102982,"name":"Wad az Zāki","latitude":"14.46190000","longitude":"32.20650000"}]}]}