{"id":193,"name":"Sao Tome and Principe","iso":"STP","states":[{"id":270,"name":"Príncipe Province","cities":[{"id":104837,"name":"Santo António","latitude":"1.63943000","longitude":"7.41951000"}]},{"id":271,"name":"São Tomé Province","cities":[{"id":104835,"name":"Cantagalo District","latitude":"0.21667000","longitude":"6.70000000"},{"id":104836,"name":"Caué District","latitude":"0.13415000","longitude":"6.63825000"},{"id":104838,"name":"São Tomé","latitude":"0.33654000","longitude":"6.72732000"},{"id":104839,"name":"Trindade","latitude":"0.29667000","longitude":"6.68139000"}]}]}